[{"index":0,"name":"Bahrain International Circuit","length":"5.412","gpHeld":"21","lapRecord":"1:31.447","lapRecordDriver":"Pedro de la Rosa","lapRecordYear":"2005","circuitId":3,"circuitRef":"bahrain","location":"Sakhir","country":"Bahrain","lat":26.0325,"lng":50.5106,"alt":"7","url":"http:\/\/en.wikipedia.org\/wiki\/Bahrain_International_Circuit"},{"index":1,"name":"Jeddah Corniche Circuit","length":"6.174","gpHeld":"","lapRecord":"1:30.734","lapRecordDriver":" Lewis Hamilton","lapRecordYear":"2021","circuitId":77,"circuitRef":"jeddah","location":"Jeddah","country":"Saudi Arabia","lat":21.6319,"lng":39.1044,"alt":"15","url":"http:\/\/en.wikipedia.org\/wiki\/Jeddah_Street_Circuit"},{"index":2,"name":"Albert Park Grand Prix Circuit","length":"5.278","gpHeld":"","lapRecord":"1:19.813 ","lapRecordDriver":"Charles Leclerc","lapRecordYear":"2024","circuitId":1,"circuitRef":"albert_park","location":"Melbourne","country":"Australia","lat":-37.8497,"lng":144.968,"alt":"10","url":"http:\/\/en.wikipedia.org\/wiki\/Melbourne_Grand_Prix_Circuit"},{"index":3,"name":"Suzuka Circuit","length":"5.807","gpHeld":"","lapRecord":"1:30.983 ","lapRecordDriver":"Lewis Hamilton","lapRecordYear":"2019","circuitId":22,"circuitRef":"suzuka","location":"Suzuka","country":"Japan","lat":34.8431,"lng":136.541,"alt":"45","url":"http:\/\/en.wikipedia.org\/wiki\/Suzuka_Circuit"},{"index":4,"name":"Shanghai International Circuit","length":"5.451","gpHeld":"","lapRecord":"1:32.238","lapRecordDriver":"Michael Schumacher","lapRecordYear":"2004","circuitId":17,"circuitRef":"shanghai","location":"Shanghai","country":"China","lat":31.3389,"lng":121.22,"alt":"5","url":"http:\/\/en.wikipedia.org\/wiki\/Shanghai_International_Circuit"},{"index":5,"name":"Miami International Autodrome","length":"5.412","gpHeld":"","lapRecord":"1:29.708","lapRecordDriver":"Max Verstappen","lapRecordYear":"2023","circuitId":79,"circuitRef":"miami","location":"Miami","country":"USA","lat":25.9581,"lng":-80.2389,"alt":"\\N","url":"http:\/\/en.wikipedia.org\/wiki\/Miami_International_Autodrome"},{"index":6,"name":"Autodromo Enzo e Dino Ferrari","length":"4.909","gpHeld":"","lapRecord":"1:29.708","lapRecordDriver":"Max Verstappen","lapRecordYear":"2023","circuitId":21,"circuitRef":"imola","location":"Imola","country":"Italy","lat":44.3439,"lng":11.7167,"alt":"37","url":"http:\/\/en.wikipedia.org\/wiki\/Autodromo_Enzo_e_Dino_Ferrari"},{"index":7,"name":"Circuit de Monaco","length":"3.337","gpHeld":"","lapRecord":"1:12.909","lapRecordDriver":"","lapRecordYear":"","circuitId":6,"circuitRef":"monaco","location":"Monte-Carlo","country":"Monaco","lat":43.7347,"lng":7.42056,"alt":"7","url":"http:\/\/en.wikipedia.org\/wiki\/Circuit_de_Monaco"},{"index":8,"name":"Circuit Gilles Villeneuve","length":"","gpHeld":"","lapRecord":"","lapRecordDriver":"Lewis Hamilton","lapRecordYear":"2021","circuitId":7,"circuitRef":"villeneuve","location":"Montreal","country":"Canada","lat":45.5,"lng":-73.5228,"alt":"13","url":"http:\/\/en.wikipedia.org\/wiki\/Circuit_Gilles_Villeneuve"},{"index":9,"name":"Circuit de Barcelona-Catalunya","length":"4.657","gpHeld":"","lapRecord":"1:16.330","lapRecordDriver":"Max Verstappen","lapRecordYear":"2023","circuitId":4,"circuitRef":"catalunya","location":"Montmel\u00f3","country":"Spain","lat":41.57,"lng":2.26111,"alt":"109","url":"http:\/\/en.wikipedia.org\/wiki\/Circuit_de_Barcelona-Catalunya"},{"index":10,"name":"Red Bull Ring","length":"4.318","gpHeld":"","lapRecord":"1:05.619","lapRecordDriver":"Carlos Sainz Jr.","lapRecordYear":"2020","circuitId":70,"circuitRef":"red_bull_ring","location":"Spielberg","country":"Austria","lat":47.2197,"lng":14.7647,"alt":"678","url":"http:\/\/en.wikipedia.org\/wiki\/Red_Bull_Ring"},{"index":11,"name":"Silverstone Circuit","length":"5.891","gpHeld":"","lapRecord":"1:27.097","lapRecordDriver":"Max Verstappen","lapRecordYear":"2020","circuitId":9,"circuitRef":"silverstone","location":"Silverstone","country":"UK","lat":52.0786,"lng":-1.01694,"alt":"153","url":"http:\/\/en.wikipedia.org\/wiki\/Silverstone_Circuit"},{"index":12,"name":"Hungaroring","length":"4.381","gpHeld":"","lapRecord":"1:16.627","lapRecordDriver":"Lewis Hamilton","lapRecordYear":"2021","circuitId":11,"circuitRef":"hungaroring","location":"Budapest","country":"Hungary","lat":47.5789,"lng":19.2486,"alt":"264","url":"http:\/\/en.wikipedia.org\/wiki\/Hungaroring"},{"index":13,"name":"Circuit de Spa-Francorchamps","length":"","gpHeld":"","lapRecord":"","lapRecordDriver":"","lapRecordYear":"","circuitId":13,"circuitRef":"spa","location":"Spa","country":"Belgium","lat":50.4372,"lng":5.97139,"alt":"401","url":"http:\/\/en.wikipedia.org\/wiki\/Circuit_de_Spa-Francorchamps"},{"index":14,"name":"Circuit Park Zandvoort","length":"","gpHeld":"","lapRecord":"","lapRecordDriver":"","lapRecordYear":"","circuitId":39,"circuitRef":"zandvoort","location":"Zandvoort","country":"Netherlands","lat":52.3888,"lng":4.54092,"alt":"6","url":"http:\/\/en.wikipedia.org\/wiki\/Circuit_Zandvoort"},{"index":15,"name":"Autodromo Nazionale di Monza","length":"","gpHeld":"","lapRecord":"","lapRecordDriver":"","lapRecordYear":"","circuitId":14,"circuitRef":"monza","location":"Monza","country":"Italy","lat":45.6156,"lng":9.28111,"alt":"162","url":"http:\/\/en.wikipedia.org\/wiki\/Autodromo_Nazionale_Monza"},{"index":16,"name":"Baku City Circuit","length":"","gpHeld":"","lapRecord":"","lapRecordDriver":"","lapRecordYear":"","circuitId":73,"circuitRef":"baku","location":"Baku","country":"Azerbaijan","lat":40.3725,"lng":49.8533,"alt":"-7","url":"http:\/\/en.wikipedia.org\/wiki\/Baku_City_Circuit"},{"index":17,"name":"Marina Bay Street Circuit","length":"","gpHeld":"","lapRecord":"","lapRecordDriver":"","lapRecordYear":"","circuitId":15,"circuitRef":"marina_bay","location":"Marina Bay","country":"Singapore","lat":1.2914,"lng":103.864,"alt":"18","url":"http:\/\/en.wikipedia.org\/wiki\/Marina_Bay_Street_Circuit"},{"index":18,"name":"Circuit of the Americas","length":"","gpHeld":"","lapRecord":"","lapRecordDriver":"","lapRecordYear":"","circuitId":69,"circuitRef":"americas","location":"Austin","country":"USA","lat":30.1328,"lng":-97.6411,"alt":"161","url":"http:\/\/en.wikipedia.org\/wiki\/Circuit_of_the_Americas"},{"index":19,"name":"Aut\u00f3dromo Hermanos Rodr\u00edguez","length":"","gpHeld":"","lapRecord":"","lapRecordDriver":"","lapRecordYear":"","circuitId":32,"circuitRef":"rodriguez","location":"Mexico City","country":"Mexico","lat":19.4042,"lng":-99.0907,"alt":"2227","url":"http:\/\/en.wikipedia.org\/wiki\/Aut%C3%B3dromo_Hermanos_Rodr%C3%ADguez"},{"index":20,"name":"Aut\u00f3dromo Jos\u00e9 Carlos Pace","length":"","gpHeld":"","lapRecord":"","lapRecordDriver":"","lapRecordYear":"","circuitId":18,"circuitRef":"interlagos","location":"S\u00e3o Paulo","country":"Brazil","lat":-23.7036,"lng":-46.6997,"alt":"785","url":"http:\/\/en.wikipedia.org\/wiki\/Aut%C3%B3dromo_Jos%C3%A9_Carlos_Pace"},{"index":21,"name":"Las Vegas Strip Street Circuit","length":"","gpHeld":"","lapRecord":"","lapRecordDriver":"","lapRecordYear":"","circuitId":80,"circuitRef":"vegas","location":"Las Vegas","country":"United States","lat":36.1147,"lng":-115.173,"alt":"\\N","url":"https:\/\/en.wikipedia.org\/wiki\/Las_Vegas_Grand_Prix#Circuit"},{"index":22,"name":"Losail International Circuit","length":"","gpHeld":"","lapRecord":"","lapRecordDriver":"","lapRecordYear":"","circuitId":78,"circuitRef":"losail","location":"Al Daayen","country":"Qatar","lat":25.49,"lng":51.4542,"alt":"\\N","url":"http:\/\/en.wikipedia.org\/wiki\/Losail_International_Circuit"},{"index":23,"name":"Yas Marina Circuit","length":"","gpHeld":"","lapRecord":"","lapRecordDriver":"","lapRecordYear":"","circuitId":24,"circuitRef":"yas_marina","location":"Abu Dhabi","country":"UAE","lat":24.4672,"lng":54.6031,"alt":"3","url":"http:\/\/en.wikipedia.org\/wiki\/Yas_Marina_Circuit"}]